[{"name":"Bay State College","street":"122 Commonwealth Avenue, Boston, MA 02116, USA","placeID":"ChIJcSdxAH6C44kRr5pj1yN5S1g","lat":42.3517285,"lng":-71.0769203},{"name":"Benjamin Franklin Institute of Technology","street":"41 Berkeley St, Boston, MA 02116, USA","placeID":"ChIJOUYEZHJ644kRrERgUDkTyFQ","lat":42.346037,"lng":-71.070193},{"name":"Bentley University","street":"175 Forest St, Waltham, MA 02452, USA","placeID":"ChIJRxq6yTad44kRqpAmDsj5H4Y","lat":42.3856989,"lng":-71.22167999999999},{"name":"Berklee College of Music","street":"Boston, MA 02215, USA","placeID":"ChIJpe-sIBt644kRNTjLbBiw4bM","lat":42.3465952,"lng":-71.0895292},{"name":"Boston Architectural College","street":"320 Newbury St, Boston, MA 02115, USA","placeID":"ChIJoxXUXQV644kRVGyTRv-BhVA","lat":42.3484629,"lng":-71.0857391},{"name":"Boston Baptist College","street":"4030, 950 Metropolitan Ave, Hyde Park, MA 02136, United States","placeID":"ChIJn6j-do9-44kRCbkr30EGXXg","lat":42.253995,"lng":-71.11014999999999},{"name":"Boston College","street":"Chestnut Hill, MA 02467, USA","placeID":"ChIJydQlp11444kRbuu4pZCuaAs","lat":42.3355488,"lng":-71.16849450000001},{"name":"Boston Graduate School of Psychoanalysis","street":"1581 Beacon St, Brookline, MA 02446, USA","placeID":"ChIJnb6IgrB544kRdcF3X1_k1OY","lat":42.3391142,"lng":-71.1331033},{"name":"Boston University","street":"Boston, MA 02215, USA","placeID":"ChIJFzjlY_B544kRyL6j4ABuNCs","lat":42.3504997,"lng":-71.1053991},{"name":"Brandeis University","street":"415 South St, Waltham, MA 02453, USA","placeID":"ChIJL1wetD2D44kRrjNOWrq8etY","lat":42.364989,"lng":-71.258663},{"name":"Bunker Hill Community College","street":"bunker hill community college, Bunker Hill Community College, Boston, MA 02129, United States","placeID":"ChIJn_DaFutw44kRe707rd93EN8","lat":42.37470709999999,"lng":-71.0696111},{"name":"Cambridge College","street":"500 Rutherford Ave, Boston, MA 02129, USA","placeID":"ChIJw_8K81p344kRpEGK_Gpe-A8","lat":42.3809947,"lng":-71.0727119},{"name":"Curry College","street":"1071 Blue Hill Avenue, Milton, MA 02186, USA","placeID":"ChIJ1TQzQmx-44kRTupMEZ7kgU4","lat":42.2406763,"lng":-71.11481119999999},{"name":"Eastern Nazarene College","street":"23 E Elm Ave, Quincy, MA 02170, USA","placeID":"ChIJ24nF4lZ744kRMw822mSqZEk","lat":42.2715247,"lng":-71.01087679999999},{"name":"Emerson College","street":"120 Boylston St, Boston, MA 02116, USA","placeID":"ChIJuYoPRHZ644kRwZmrpE53jq4","lat":42.3522216,"lng":-71.06581},{"name":"Emmanuel College","street":"400 Fenway, Boston, MA 02115, USA","placeID":"ChIJP5J5VIt544kRcbZ7C7NjA1s","lat":42.3412454,"lng":-71.10202439999999},{"name":"Fisher College","street":"118 Beacon St, Boston, MA 02116, USA","placeID":"ChIJIZpxBqBw44kRCJcWOUq1bbA","lat":42.35531,"lng":-71.0741699},{"name":"Gordon-Conwell Theological Seminary","street":"130 Essex St, South Hamilton, MA 01982, USA","placeID":"ChIJr7L1cZEX44kRvESgoYHvxpw","lat":42.6124501,"lng":-70.8450204},{"name":"Harvard University","street":"Cambridge, MA 02138, USA","placeID":"ChIJmQF_fUJ344kR8Cck7lzGN1k","lat":42.3770029,"lng":-71.11666009999999},{"name":"Hebrew College","street":"160 Herrick Rd, Newton Centre, MA 02459, USA","placeID":"ChIJuSqz5Jx444kRN_5ETWwwLVk","lat":42.3256922,"lng":-71.18921209999999},{"name":"Hellenic College and Holy Cross Greek Orthodox School of Theology","street":"50 Goddard Ave, Brookline, MA 02445, USA","placeID":"ChIJ_dgmSw5544kRnQ-wQiehifw","lat":42.3172451,"lng":-71.12888029999999},{"name":"Hult International Business School","street":"1 Education St, Cambridge, MA 02141, USA","placeID":"ChIJGWKDypVw44kRfFhBFKTvgrI","lat":42.3699207,"lng":-71.0706403},{"name":"Labouré College","street":null,"placeID":null,"lat":null,"lng":null},{"name":"Lasell College","street":"1844 Commonwealth Avenue, Auburndale, MA 02466, USA","placeID":"ChIJmWN1-quD44kRSH1ObwTrGeA","lat":42.3432053,"lng":-71.2446266},{"name":"Lesley University","street":"29 Everett St, Cambridge, MA 02138, USA","placeID":"ChIJWyf77EB344kRrlhNAgvnc6s","lat":42.3811758,"lng":-71.1177024},{"name":"Longy School of Music of Bard College","street":"27 Garden St, Cambridge, MA 02138, USA","placeID":"ChIJi_idMWp344kRCHWThyIeIQg","lat":42.378604,"lng":-71.1234683},{"name":"Massachusetts College of Art and Design","street":"621 Huntington Ave, Boston, MA 02115, USA","placeID":"ChIJ9XXZP4p544kReCR_MQALcD0","lat":42.3368239,"lng":-71.0992668},{"name":"Massachusetts College of Pharmacy and Health Sciences","street":"179 Longwood Ave, Boston, MA 02115, USA","placeID":"ChIJt4rc0ot544kRCcGOvQ8V2mo","lat":42.3367994,"lng":-71.101197},{"name":"Massachusetts Institute of Technology","street":"77 Massachusetts Ave, Cambridge, MA 02139, USA","placeID":"ChIJh2oa9apw44kRPCAIs6WO4NA","lat":42.360091,"lng":-71.09416},{"name":"William James College","street":"1 Wells Ave, Newton, MA 02459, USA","placeID":"ChIJI1eE8Wd_44kRKFzZplxD-NE","lat":42.29499269999999,"lng":-71.20323479999999},{"name":"MGH Institute of Health Professions","street":"36 1st Ave, Charlestown, MA 02129, USA","placeID":"ChIJLzZaPfRw44kRcUnndyCXfgg","lat":42.3748826,"lng":-71.0540302},{"name":"New England College of Optometry","street":"424 Beacon St, Boston, MA 02115, USA","placeID":"ChIJhwRn5AV644kRh9eSMKnIyTA","lat":42.3519,"lng":-71.0868},{"name":"New England Conservatory","street":"290 Huntington Ave, Boston, MA 02115, USA","placeID":"ChIJD0grxBl644kRHSYzH190NKc","lat":42.3408699,"lng":-71.08643529999999},{"name":"New England School of Law","street":"154 Stuart St, Boston, MA 02116, USA","placeID":"ChIJM3eZjHZ644kR25lheRnOdAI","lat":42.3508565,"lng":-71.06639659999999},{"name":"New England School of Photography","street":"274 Moody St, Waltham, MA 02453, USA","placeID":"ChIJX8uhUR1644kRCX0SuyjgwUY","lat":42.3715074,"lng":-71.236729},{"name":"Newbury College","street":"5750, 129 Fisher Ave, Brookline, MA 02445, United States","placeID":"ChIJ_0j2HKt544kRM-TwOs5zu0k","lat":42.3312841,"lng":-71.1428026},{"name":"North Bennet Street School","street":"150 North St, Boston, MA 02109, USA","placeID":"ChIJzTOVxohw44kRys4pMI6bk3w","lat":42.36265,"lng":-71.05460599999999},{"name":"Northeastern University","street":"360 Huntington Ave, Boston, MA 02115, USA","placeID":"ChIJ4VzPmRl644kRjLkiZeYAe8k","lat":42.3398067,"lng":-71.0891717},{"name":"Pine Manor College","street":"400 Heath St, Chestnut Hill, MA 02467, USA","placeID":"ChIJFWSceO9444kRpNCKnCbThZg","lat":42.3199094,"lng":-71.157477},{"name":"Quincy College","street":"1250 Hancock St, Quincy, MA 02169, USA","placeID":"ChIJE_E61Kh844kRcIMZuLpZXFI","lat":42.252174,"lng":-71.0034508},{"name":"Roxbury Community College","street":"1234 Columbus Ave, Roxbury Crossing, MA 02120, USA","placeID":"ChIJcwBGcih644kR-pyKQ7s7C9I","lat":42.329242,"lng":-71.095479},{"name":"Saint John's Seminary","street":"127 Lake St, Brighton, MA 02135, USA","placeID":"ChIJb1OAXFt444kRWTjFyeTNUbo","lat":42.34395749999999,"lng":-71.16257600000002},{"name":"Simmons College","street":"300 Fenway, Boston, MA 02115, USA","placeID":"ChIJxclD5_d544kRlkO9x3tXeqc","lat":42.3393661,"lng":-71.0999358},{"name":"Suffolk University","street":"8 Ashburton Pl, Boston, MA 02108, USA","placeID":"ChIJ4VSYqpxw44kRy5YykRJk8Zw","lat":42.3585205,"lng":-71.0613561},{"name":"Tufts University","street":"419 Boston Ave, Medford, MA 02155‎, USA","placeID":"ChIJHwvY2t1244kR5TyD-KE1c64","lat":42.4074843,"lng":-71.1190232},{"name":"University of Massachusetts Boston","street":"100 Morrissey Blvd, Boston, MA 02125, USA","placeID":"ChIJH4CMhPt644kRW_t0oSh8Yos","lat":42.3148413,"lng":-71.0367377},{"name":"Urban College of Boston","street":"2, 2 Boylston St, Boston, MA 02116, USA","placeID":"ChIJQajg03d644kRjaw4zWwP1cI","lat":42.3529158,"lng":-71.0642847},{"name":"Wentworth Institute of Technology","street":"550 Huntington Ave, Boston, MA 02115, USA","placeID":"ChIJM6z_-iB644kRYotVdX-FmF8","lat":42.3360695,"lng":-71.09540179999999}]
